{"type": "FeatureCollection", "features": [{"type": "Feature", "id": 1, "geometry": {"type": "Point", "coordinates": [51.7532425680001, 35.5325807150001]}, "properties": {"OBJECTID": 1, "Name": "Parchin Military Complex", "group": "Military & IRGC Bases"}}, {"type": "Feature", "id": 2, "geometry": {"type": "Point", "coordinates": [51.5459237840001, 35.568078122]}, "properties": {"OBJECTID": 2, "Name": "Air Defense Military Base", "group": "Military & IRGC Bases"}}, {"type": "Feature", "id": 4, "geometry": {"type": "Point", "coordinates": [51.496896817, 32.9765871910001]}, "properties": {"OBJECTID": 4, "Name": "Basij HQ", "group": "Military & IRGC Bases"}}, {"type": "Feature", "id": 5, "geometry": {"type": "Point", "coordinates": [51.20395862, 35.765650695]}, "properties": {"OBJECTID": 5, "Name": "Alleged IRGC Base", "group": "Military & IRGC Bases"}}, {"type": "Feature", "id": 6, "geometry": {"type": "Point", "coordinates": [50.095629624, 33.607335816]}, "properties": {"OBJECTID": 6, "Name": "IRGC HQ in Khomeyn", "group": "Military & IRGC Bases"}}]}