{"type": "FeatureCollection", "features": [{"type": "Feature", "id": 1, "geometry": {"type": "Point", "coordinates": [56.2126335090001, 27.142533009]}, "properties": {"OBJECTID": 1, "Name": "Bandar Abbas", "Location": "Persian Gulf", "Status": "IRGCN HQ & IRIN SNFHQ 1st ND", "group": "Naval Bases"}}, {"type": "Feature", "id": 2, "geometry": {"type": "Point", "coordinates": [49.467243802, 37.480838202]}, "properties": {"OBJECTID": 2, "Name": "Bandar-E Anzali", "Location": "Caspian Sea", "Status": "IRIN 4th ND", "group": "Naval Bases"}}, {"type": "Feature", "id": 3, "geometry": {"type": "Point", "coordinates": [54.884722443, 26.5471405770001]}, "properties": {"OBJECTID": 3, "Name": "Bandar-e-Lengeh", "Location": "Persian Gulf", "Status": "IRGCN 5th ND", "group": "Naval Bases"}}, {"type": "Feature", "id": 5, "geometry": {"type": "Point", "coordinates": [49.1090597450001, 30.426840139]}, "properties": {"OBJECTID": 5, "Name": "Bandar-e Mahshahr", "Location": "Persian Gulf", "Status": "IRGCN 3rd ND", "group": "Naval Bases"}}, {"type": "Feature", "id": 6, "geometry": {"type": "Point", "coordinates": [50.835306309, 28.995881479]}, "properties": {"OBJECTID": 6, "Name": "Bandar-e Bushehr", "Location": "Persian Gulf", "Status": "IRGCN 2nd ND", "group": "Naval Bases"}}, {"type": "Feature", "id": 7, "geometry": {"type": "Point", "coordinates": [52.6034394430001, 27.4678472740001]}, "properties": {"OBJECTID": 7, "Name": "Bandar-e Asaluyeh", "Location": "Persian Gulf", "Status": "IRGCN 4th ND", "group": "Naval Bases"}}, {"type": "Feature", "id": 8, "geometry": {"type": "Point", "coordinates": [57.767865611, 25.6502795320001]}, "properties": {"OBJECTID": 8, "Name": "Jask", "Location": "Gulf of Oman", "Status": "IRIN 2nd ND", "group": "Naval Bases"}}, {"type": "Feature", "id": 9, "geometry": {"type": "Point", "coordinates": [57.08215986, 26.563451958]}, "properties": {"OBJECTID": 9, "Name": "Sirik", "Location": "Gulf of Oman", "Status": "IRGCN", "group": "Naval Bases"}}, {"type": "Feature", "id": 10, "geometry": {"type": "Point", "coordinates": [60.604131733, 25.3393325440001]}, "properties": {"OBJECTID": 10, "Name": "Chah Bahar", "Location": "Gulf of Oman", "Status": "IRIN 3rd ND", "group": "Naval Bases"}}, {"type": "Feature", "id": 11, "geometry": {"type": "Point", "coordinates": [54.5368124030001, 26.2955436180001]}, "properties": {"OBJECTID": 11, "Name": "Faror Island", "Location": "Persian Gulf", "Status": "IRGCN Special Forces Brigade Base", "group": "Naval Bases"}}, {"type": "Feature", "id": 12, "geometry": {"type": "Point", "coordinates": [49.864518208, 37.441816434]}, "properties": {"OBJECTID": 12, "Name": "Zibakenar Naval Academy", "Location": "Caspian Sea", "Status": "Imam Khamenei Naval Academy", "group": "Naval Bases"}}, {"type": "Feature", "id": 13, "geometry": {"type": "Point", "coordinates": [52.602080609, 36.6986645960001]}, "properties": {"OBJECTID": 13, "Name": "Babolsar", "Location": "Caspian Sea", "Status": "Samen al-Hojaj Independent Naval Base North", "group": "Naval Bases"}}]}